{
    "Nariño": [
        { "nombre_municipio": "Pasto", "id_dane": "52001", "latitud": 1.2136, "longitud": -77.2811 },
        { "nombre_municipio": "Ipiales", "id_dane": "52356", "latitud": 0.828, "longitud": -77.641 },
        { "nombre_municipio": "Tumaco", "id_dane": "52835", "latitud": 1.805, "longitud": -78.764 }
    ],
    "Putumayo": [
        { "nombre_municipio": "Mocoa", "id_dane": "86001", "latitud": 1.15, "longitud": -76.65 },
        { "nombre_municipio": "Puerto Asís", "id_dane": "86568", "latitud": 0.505, "longitud": -76.503 }
    ],
    "Cauca": [
        { "nombre_municipio": "Popayán", "id_dane": "19001", "latitud": 2.444, "longitud": -76.614 },
        { "nombre_municipio": "Santander de Quilichao", "id_dane": "19698", "latitud": 2.99, "longitud": -76.48 }
    ],
    "Valle del Cauca": [
        { "nombre_municipio": "Cali", "id_dane": "76001", "latitud": 3.4516, "longitud": -76.532 },
        { "nombre_municipio": "Buenaventura", "id_dane": "76109", "latitud": 3.88, "longitud": -77.07 },
        { "nombre_municipio": "Palmira", "id_dane": "76520", "latitud": 3.53, "longitud": -76.3 }
    ]
}
